{
    "pharmacies": [
        {
            "name": "Pharmacie Ad-damane",
            "address": "600, bd. El Qods, lot. Al Hamra II,quartier Aïn Chok",
            "city": "Casablanca",
            "telephone": "05 22 50 65 10",
            "coordinates": "33.537678, -7.604087",
            "inNight": "1",
            "neighborhood": "Aïn chok",
            "inDay": "0"
           
        },
        {
            "name": "Pharmacie Afak",
            "address": "Hay Mohammadi, bloc 22 rue 6 n° 74, quartier Hay Mohammadi\t",
            "city": "Casablanca",
            "telephone": "05 22 62 83 70",
            "coordinates": "33.590862, -7.565563",
            "inNight": "0",
            "neighborhood": "Hay mohammadi",
            "inDay": "1"
        },
        {
            "name": "Pharmacie Ahl Loughlam",
            "address": "Ahl Loghlam, lot. Sami lot n° 380 tranche C, quartier Sidi Moumen",
            "city": "Casablanca",
            "telephone": "05 22 01 04 75",
            "coordinates": "33.593403, -7.485475",
            "inNight": "0",
            "neighborhood": "Sidi moumen",
            "inDay": "1"
        },
        {
            "name": "Pharmacie Aida",
            "address": "196, bd. Mohamed Zerktouni, quartier Gautier",
            "city": "Casablanca",
            "telephone": "05 22 26 32 53",
            "coordinates": "33.595488, -7.637978",
            "inNight": "0",
            "neighborhood": "Gautier",
            "inDay": "1"
        },
        {
            "name": "Pharmacie Al Badr",
            "address": "262, lot. Hadioui, quartier Sidi Maarouf",
            "city": "Casablanca",
            "telephone": "05 22 58 49 87",
            "coordinates": "",
            "inNight": "1",
            "neighborhood": "Sidi maârouf",
            "inDay": "0"
        },
        {
            "name": "Pharmacie Al Housne",
            "address": "18, lot. El Azhar, résidence Al Amana",
            "city": "Casablanca",
            "telephone": "05 20 05 14 58 ",
            "coordinates": "33.606559011114136, -7.487140892284434",
            "inNight": "0",
            "neighborhood": "Sidi bernoussi",
            "inDay": "1"
        },
        {
            "name": "Pharmacie Alkhozama",
            "address": "Bd. Oqba Bnou Nafiaa, hay Antaria 1, quartier Hay Mohammadi",
            "city": "Casablanca",
            "telephone": "05 22 62 48 48",
            "coordinates": "33.579978, -7.557328",
            "inNight": "0",
            "neighborhood": "Hay mohammadi",
            "inDay": "1"
        },
        {
            "name": "Pharmacie Amal El Firdaous",
            "address": "11, cité Sidi Bernoussi, resid. Firdaous, mag 13",
            "city": "Casablanca",
            "telephone": "05 22 34 17 02",
            "coordinates": "",
            "inNight": "0",
            "neighborhood": "Sidi bernoussi",
            "inDay": "1"
        },
        {
            "name": "Pharmacie Areski",
            "address": "Hay Amal I Ben M'Sik, rue 8, n° 59, quartier Hay El Farah",
            "city": "Casablanca",
            "telephone": "05 22 85 32 16",
            "coordinates": "",
            "inNight": "0",
            "neighborhood": "Hay el farah",
            "inDay": "1"
        },
        {
            "name": "Pharmacie Argane",
            "address": "199, bd. de Bordeaux, quartier Bourgogne",
            "city": "Casablanca",
            "telephone": "05 22 49 21 71",
            "coordinates": "33.600241, -7.637762",
            "inNight": "0",
            "neighborhood": "Bourgogne",
            "inDay": "1"
            
        },
        {
            "name": "Pharmacie Arrimal Addahabia",
            "address": "41, allée des Mûriers, quartier Aïn Sebaâ",
            "city": "Casablanca",
            "telephone": "05 22 34 00 74",
            "coordinates": "33.617353, -7.536881",
            "inNight": "0",
            "neighborhood": "Aïn sebaâ",
            "inDay": "1"
        },
        {
            "name": "Pharmacie Arsalane",
            "address": "114, bd. Hassan El Alaoui, quartier Aïn Borja",
            "city": "Casablanca",
            "telephone": "05 22 62 11 71",
            "coordinates": "33.584861, -7.580585",
            "inNight": "0",
            "neighborhood": "Aïn Borja",
            "inDay": "1"
        },
        {
            "name": "Pharmacie Assidk",
            "address": "Hay Moulay Rachid, grp. 5, rue 15 n° 36, quartier Hay Moulay Rachid",
            "city": "Casablanca",
            "telephone": "05 22 70 92 77",
            "coordinates": "",
            "inNight": "1",
            "neighborhood": "Hay moulay rachid",
            "inDay": "0"
        },
        {
            "name": "Pharmacie de l'hôpital Med V",
            "address": "62, bd. de la Grande Ceinture lot. Almouahidine, rue 8, quartier Hay Mohammadi\t",
            "city": "Casablanca",
            "telephone": "05 22 35 72 90",
            "coordinates": "33.599367, -7.624668",
            "inNight": "0",
            "neighborhood": "Hay mohammadi",
            "inDay": "1"
        },
        {
            "name": "Pharmacie des Abattoirs",
            "address": "78, rue Abou Bakr El Wahrani, quartier Hay Mohammadi",
            "city": "Casablanca",
            "telephone": "05 22 62 56 51",
            "coordinates": "33.593045, -7.578930",
            "inNight": "0",
            "neighborhood": "Hay mohammadi",
            "inDay": "1"
        },
        {
            "name": "Pharmacie du Caf",
            "address": "1, rue Oukhouane - ex Capit. Portalis, quartier Beauséjour",
            "city": "Casablanca",
            "telephone": "05 22 39 89 73",
            "coordinates": "33.565608, -7.647429",
            "inNight": "0",
            "neighborhood": "Beauséjour",
            "inDay": "1"
        },
        {
            "name": "Pharmacie du Théâtre",
            "address": "38, av. Akid Allam, Salama 3, quartier Hay Moulay Rachid",
            "city": "Casablanca",
            "telephone": "05 22 37 01 22",
            "coordinates": "33.563442, -7.554223",
            "inNight": "0",
            "neighborhood": "Hay moulay rachid",
            "inDay": "1"
        },
        {
            "name": "Pharmacie El Kandara",
            "address": "10, rue Abdellah Guennoun -ex Nièvre, quartier Lusitania",
            "city": "Casablanca",
            "telephone": "05 22 27 40 83",
            "coordinates": "33.593975, -7.627561",
            "inNight": "0",
            "neighborhood": "Lusitania",
            "inDay": "1"
        },
        {
            "name": "Pharmacie El Mokhtar",
            "address": "19, bd. de la Grande Ceinture, quartier Aïn Sebaâ",
            "city": "Casablanca",
            "telephone": "05 22 66 49 49",
            "coordinates": "33.602872, -7.543178",
            "inNight": "1",
            "neighborhood": "Aïn sebaâ",
            "inDay": "0"
        },
        {
            "name": "Pharmacie El Youssoufi",
            "address": "Lot. Ennour, rue 9 n° 19, cité Sidi Othmane, quartier Hay Moulay Rachid",
            "city": "Casablanca",
            "telephone": "05 22 57 96 62",
            "coordinates": "",
            "inNight": "0",
            "neighborhood": "Sidi othman",
            "inDay": "1"
        },
        {
            "name": "Pharmacie Er-rayane",
            "address": "1, lot. Ennour , quartier Sidi Maarouf",
            "city": "Casablanca",
            "telephone": "05 22 97 32 14",
            "coordinates": "33.530884, -7.651201",
            "inNight": "1",
            "neighborhood": "Sidi maârouf",
            "inDay": "0"
        },
        {
            "name": "Pharmacie Fahd",
            "address": "Bd. Oued Abi Raqraq, Souk Saâda n° 1, quartier Oulfa",
            "city": "Casablanca",
            "telephone": "05 22 90 75 20",
            "coordinates": "33.569103, -7.673411",
            "inNight": "1",
            "neighborhood": "Oulfa",
            "inDay": "0"
        },
        {
            "name": "Pharmacie Hatim",
            "address": "127, rue du Prince Moulay Abdallah, quartier Centre Ville",
            "city": "Casablanca",
            "telephone": "05 22 22 68 02",
            "coordinates": "33.593578, -7.616495",
            "inNight": "1",
            "neighborhood": "Centre ville",
            "inDay": "0"
        },
        {
            "name": "Pharmacie Hay Adil",
            "address": "Av. Colonel Driss El Allam",
            "city": "Casablanca",
            "telephone": "05 22 63 87 58",
            "coordinates": "33.576859, -7.566208",
            "inNight": "0",
            "neighborhood": "Aïn Borja",
            "inDay": "1"
        },
        {
            "name": "Pharmacie Ibnou Sinaa",
            "address": "Lotiss. Al Houda, 208 rue 3, Sidi moumen ",
            "city": "Casablanca",
            "telephone": "05 22 72 87 47",
            "coordinates": "33.594249, -7.558357",
            "inNight": "0",
            "neighborhood": "Sidi moumen",
            "inDay": "1"
        },
        {
            "name": "Pharmacie Jardin Isesco",
            "address": "13 Bis, rue de Rome, résidence Nora, quartier Mers Sultan",
            "city": "Casablanca",
            "telephone": "05 22 29 75 45",
            "coordinates": "33.579729, -7.611843",
            "inNight": "0",
            "neighborhood": "Mers sultan",
            "inDay": "1"
        },
        {
            "name": "Pharmacie Kissariat Aziza",
            "address": "86, bd. de la Grande Ceinture, Kissariat Aziza n° 21, quartier Hay Mohammadi",
            "city": "Casablanca",
            "telephone": "05 22 63 51 13",
            "coordinates": "",
            "inNight": "0",
            "neighborhood": "Hay mohammadi",
            "inDay": "1"
        },
        {
            "name": "Pharmacie le Corail",
            "address": "9 Bis, bd. de Libye, Val d'Anfa, quartier Anfa Supérieur",
            "city": "Casablanca",
            "telephone": "05 22 39 82 22",
            "coordinates": "33.588994, -7.651876",
            "inNight": "0",
            "neighborhood": "Anfa Supérieur",
            "inDay": "1"
        },
        {
            "name": "Pharmacie Mabrouk",
            "address": "57 bis cité Zerktouni, quartier Hay Mohammadi",
            "city": "Casablanca",
            "telephone": "05 22 62 63 61",
            "coordinates": "33.587907, -7.569616",
            "inNight": "0",
            "neighborhood": "Hay mohammadi",
            "inDay": "1"
        },
        {
            "name": "Pharmacie Mçalla",
            "address": "84, bd. de Témara bloc 13, n° 1, quartier Aïn Chok",
            "city": "Casablanca",
            "telephone": "05 22 21 48 13",
            "coordinates": "33.548996, -7.599675",
            "inNight": "0",
            "neighborhood": "Aïn chok",
            "inDay": "1"
        },
        {
            "name": "Pharmacie Merieux",
            "address": "311, bd Abdelmoumen, quartier Ermitage - Hôpitaux",
            "city": "Casablanca",
            "telephone": "05 22 86 05 70",
            "coordinates": "33.568087, -7.625943",
            "inNight": "0",
            "neighborhood": "Hermitage - hôpitaux",
            "inDay": "1"
        },
        {
            "name": "Pharmacie Moulay Ahmed",
            "address": "Lot. 1 Unité 6 Jnane Louz-Oulfa, Ouled Azzouz",
            "city": "Casablanca",
            "telephone": "05 22 65 86 08",
            "coordinates": "33.534212, -7.706119",
            "inNight": "1",
            "neighborhood": "Lissasfa",
            "inDay": "0"
        },
        {
            "name": "Pharmacie Moumen",
            "address": "Derb Fokara, rue 31, n° 47-51, quartier Nouvelle Médina",
            "city": "Casablanca",
            "telephone": "05 22 82 69 00",
            "coordinates": "33.564467, -7.604639",
            "inNight": "1",
            "neighborhood": "Nouvelle médina",
            "inDay": "0"
        },
        {
            "name": "Pharmacie Najd",
            "address": "1 Bis, rue Ibn Chahid - ex Rigaud, quartier Palmiers",
            "city": "Casablanca",
            "telephone": "05 22 25 60 64",
            "coordinates": "33.578707, -7.634641",
            "inNight": "1",
            "neighborhood": "Palmiers",
            "inDay": "0"
        },
        {
            "name": "Pharmacie Nouamani",
            "address": "Quartier Lissasfa III, route d'El Jadida, n° 139 km 9, quartier Oulfa",
            "city": "Casablanca",
            "telephone": "05 22 65 12 42",
            "coordinates": "33.529475, -7.676397",
            "inNight": "1",
            "neighborhood": "Lissasfa",
            "inDay": "0"
        },
        {
            "name": "Pharmacie Oussama",
            "address": "Hay El Qods 18, imm. Moubaraka n° 25, quartier Sidi Bernoussi",
            "city": "Casablanca",
            "telephone": "05 22 73 57 37",
            "coordinates": "33.614696, -7.500224",
            "inNight": "1",
            "neighborhood": "Sidi bernoussi",
            "inDay": "0"
        },
        {
            "name": "Pharmacie Ouzineb",
            "address": "161, bd. Oqba Bnou Nafiaa, quartier Hay Mohammadi",
            "city": "Casablanca",
            "telephone": "05 22 62 00 95",
            "coordinates": "33.582377, -7.567413",
            "inNight": "0",
            "neighborhood": "Hay mohammadi",
            "inDay": "1"
        },
        {
            "name": "Pharmacie prolongement 2 Mars",
            "address": "Av. du Deux Mars, Lot. Safaa rue 10 n° 158, quartier Aïn Chok",
            "city": "Casablanca",
            "telephone": "05 22 21 46 73",
            "coordinates": "33.556223, -7.605958",
            "inNight": "0",
            "neighborhood": "Aïn chok",
            "inDay": "1"
        },
        {
            "name": "Pharmacie Riad Al Hadika",
            "address": "20, rue 13, lot. Al Hadika II",
            "city": "Casablanca",
            "telephone": "05 22 72 42 43",
            "coordinates": "",
            "inNight": "1",
            "neighborhood": "Sidi moumen",
            "inDay": "0"
        },
        {
            "name": "Pharmacie Sourzac",
            "address": "Rue Augustin Sourzac ang. Zoubeir Ibnou El Aouame r.n, quartier Roches noires",
            "city": "Casablanca",
            "telephone": "05 22 24 33 40",
            "coordinates": "33.598840, -7.580441",
            "inNight": "1",
            "neighborhood": "Roches noires",
            "inDay": "0"
        },
        {
            "name": "Pharmacie Tam",
            "address": "302, bd. Oued Sebou, quartier Oulfa",
            "city": "Casablanca",
            "telephone": "05 22 90 18 99",
            "coordinates": "33.552952, -7.677567",
            "inNight": "1",
            "neighborhood": "Oulfa",
            "inDay": "0"
        }
    ]
}